[

{
    "code": "AMS",
    "lat": "52.3122",
    "lon": "4.77511",
    "name": "Schiphol Airport",
    "city": "Schiphol Zuid",
    "state": "North Holland",
    "country": "Netherlands",
    "woeid": "22386730",
    "tz": "Europe\/Amsterdam",
    "phone": "+31-207940800",
    "type": "Airports",
    "email": "",
    "url": "http:\/\/www.schiphol.com\/",
    "runway_length": "12467",
    "elev": "-11",
    "icao": "EHAM",
    "direct_flights": "284",
    "carriers": "118"
  },

   {
    "code": "FRA",
    "lat": "50.0483",
    "lon": "8.57041",
    "name": "Frankfurt International Airport",
    "city": "Frankfurt",
    "state": "Hesse",
    "country": "Germany",
    "woeid": "22981759",
    "tz": "Europe\/Berlin",
    "phone": "+49 69 690 0",
    "type": "Airports",
    "email": "",
    "url": "http:\/\/www.airportcity-frankfurt.de",
    "runway_length": "13123",
    "elev": "364",
    "icao": "EDDF",
    "direct_flights": "337",
    "carriers": "131"
  },

  {
    "code": "HAM",
    "lat": "53.6321",
    "lon": "10.0042",
    "name": "Hamburg Airport",
    "city": "Hamburg",
    "state": "Hamburg",
    "country": "Germany",
    "woeid": "22211603",
    "tz": "Europe\/Berlin",
    "phone": "+49 (0)40\/5075-0",
    "type": "Airports",
    "email": "",
    "url": "http:\/\/www.hamburg-airport.de",
    "runway_length": "12024",
    "elev": "53",
    "icao": "EDDH",
    "direct_flights": "112",
    "carriers": "75"
  },

   {
    "code": "MUC",
    "lat": "48.354",
    "lon": "11.7816",
    "name": "Franz-Josef-Strauss Airport",
    "city": "Oberding",
    "state": "Bavaria",
    "country": "Germany",
    "woeid": "22923040",
    "tz": "Europe\/Berlin",
    "phone": "",
    "type": "Airports",
    "email": "",
    "url": "http:\/\/www.munich-airport.de\/",
    "runway_length": "13100",
    "elev": "1737",
    "icao": "EDDM",
    "direct_flights": "213",
    "carriers": "95"
  },

  {
    "code": "SXF",
    "lat": "52.3886",
    "lon": "13.5188",
    "name": "Berlin-Schonefeld International Airport",
    "city": "Sch\u00f6nefeld",
    "state": "Bundesland Brandenburg",
    "country": "Germany",
    "woeid": "22276234",
    "tz": "Europe\/Berlin",
    "phone": "",
    "type": "Airports",
    "email": "",
    "url": "",
    "runway_length": "9843",
    "elev": "154",
    "icao": "EDDB",
    "direct_flights": "85",
    "carriers": "21"
  },

  {
    "code": "THF",
    "lat": "52.4825",
    "lon": "13.3892",
    "name": "Tempelhof Central Airport",
    "city": "Berlin",
    "state": "Berlin",
    "country": "Germany",
    "woeid": "22164089",
    "tz": "Europe\/Berlin",
    "phone": "",
    "type": "Airports",
    "email": "",
    "url": "",
    "runway_length": "6942",
    "elev": "164",
    "icao": "EDDI",
    "direct_flights": "5",
    "carriers": "7"
  },

  {
    "code": "TXL",
    "lat": "52.5548",
    "lon": "13.289",
    "name": "Berlin-Tegel International Airport",
    "city": "Berlin",
    "state": "Berlin",
    "country": "Germany",
    "woeid": "22164086",
    "tz": "Europe\/Berlin",
    "phone": "0180 5000 186 (0,12 Euro",
    "type": "Airports",
    "email": "",
    "url": "http:\/\/www.berlin-airport.de\/PubEnglish\/PubTegel\/index.php?",
    "runway_length": "9918",
    "elev": "121",
    "icao": "EDDT",
    "direct_flights": "101",
    "carriers": "70"
  }

]